{
  "phbvuADv5nUnGGXTNwp7C2": {
    "name": "삼화사랑약국",
    "address": "(63323) 제주특별자치도 제주시 건주로 43 1층 삼화사랑약국",
    "tel": "064-755-3545",
    "time": "08:30 ~ 21:00",
    "id": "phbvuADv5nUnGGXTNwp7C2",
    "lng": 126.580987069057,
    "lat": 33.515618997731
  },
  "ri7NYfYErd6HvcMuYLbgDn": {
    "name": "구좌약국",
    "address": "(63361) 제주특별자치도 제주시 구좌읍 구좌로 40 1층",
    "tel": "064-782-8875",
    "time": "07:30 ~ 19:30",
    "id": "ri7NYfYErd6HvcMuYLbgDn",
    "lng": 126.855667474488,
    "lat": 33.5232790282259
  },
  "kXasS5ahDqkaKbADSqyPVz": {
    "name": "메디팜감초당약국",
    "address": "(63361) 제주특별자치도 제주시 구좌읍 구좌로 42 메디팜감초당약국",
    "tel": "064-783-2360",
    "time": "08:30 ~ 19:00",
    "id": "kXasS5ahDqkaKbADSqyPVz",
    "lng": 126.855869740474,
    "lat": 33.5232786326305
  },
  "idLeDzLk9YwWZH9zrug59h": {
    "name": "자연약국",
    "address": "(63132) 제주특별자치도 제주시 노연로 90 자연약국",
    "tel": "064-712-1596",
    "time": "09:00 ~ 22:30",
    "id": "idLeDzLk9YwWZH9zrug59h",
    "lng": 126.489715841975,
    "lat": 33.4857262153656
  },
  "n2BLWPmJKAWyQKkzSVCJrB": {
    "name": "으뜸약국",
    "address": "(63083) 제주특별자치도 제주시 노형로 376 ",
    "tel": "064-749-0003",
    "time": "09:00 ~ 22:30",
    "id": "n2BLWPmJKAWyQKkzSVCJrB",
    "lng": 126.476126253122,
    "lat": 33.483414723833
  },
  "vSERAEmCToWcauN8s6hu2m": {
    "name": "제주토마토약국",
    "address": "(63127) 제주특별자치도 제주시 도령로 73 펠리체상가 101호",
    "tel": "064-712-4003",
    "time": "08:30 ~ 21:00",
    "id": "vSERAEmCToWcauN8s6hu2m",
    "lng": 126.485948322561,
    "lat": 33.4901161837273
  },
  "dmJtgqmR7L3jG8gBVDecQB": {
    "name": "낙산약국",
    "address": "(63127) 제주특별자치도 제주시 도령로 87 낙산약국",
    "tel": "064-744-2688",
    "time": "08:00 ~ 22:00",
    "id": "dmJtgqmR7L3jG8gBVDecQB",
    "lng": 126.487275468846,
    "lat": 33.4908688308155
  },
  "megdUZyNGjD83dUq27opu5": {
    "name": "수약국",
    "address": "(63275) 제주특별자치도 제주시 동광로 124 수약국",
    "tel": "064-759-0587",
    "time": "09:00 ~ 19:00",
    "id": "megdUZyNGjD83dUq27opu5",
    "lng": 126.540293885402,
    "lat": 33.5069867270985
  },
  "qKdn9ouNNNTJrika3xWPdB": {
    "name": "서사라튼튼약국",
    "address": "(63182) 제주특별자치도 제주시 서사로 137 1층 서사라튼튼약국",
    "tel": "064-752-7365",
    "time": "08:30 ~ 19:00",
    "id": "qKdn9ouNNNTJrika3xWPdB",
    "lng": 126.520055246037,
    "lat": 33.5001420911967
  },
  "qgBgD12RKKrNLhSvPCvuUS": {
    "name": "에이스팜플러스약국",
    "address": "(63124) 제주특별자치도 제주시 신대로14길 56 에이스팜플러스약국",
    "tel": "064-711-5553",
    "time": "08:00 ~ 익일04:00",
    "id": "qgBgD12RKKrNLhSvPCvuUS",
    "lng": 126.490481235438,
    "lat": 33.487995336379
  },
  "if4zgP7kyuDVedndN5FE8A": {
    "name": "부부온누리약국",
    "address": "(63123) 제주특별자치도 제주시 신대로16길 41 부부온누리약국",
    "tel": "064-742-5252",
    "time": "17:00 ~ 익일03:00",
    "id": "if4zgP7kyuDVedndN5FE8A",
    "lng": 126.492139331414,
    "lat": 33.4867636252058
  },
  "uuhpTnAMd3itpBHvx6RmPt": {
    "name": "태평양약국",
    "address": "(63123) 제주특별자치도 제주시 연동7길 30 1층",
    "tel": "064-744-3236",
    "time": "16:00 ~ 21:00",
    "id": "uuhpTnAMd3itpBHvx6RmPt",
    "lng": 126.490528109697,
    "lat": 33.4872302576653
  },
  "ppq4uvUBRgp5CZHBD1Z9iR": {
    "name": "명인약국",
    "address": "(63234) 제주특별자치도 제주시 연북로 511 1층 명인약국",
    "tel": "064-727-1610",
    "time": "09:00 ~ 22:00",
    "id": "ppq4uvUBRgp5CZHBD1Z9iR",
    "lng": 126.534540530554,
    "lat": 33.4844445262988
  },
  "kHeB9oacwHnBiT87fVK8Y8": {
    "name": "하나약국",
    "address": "(63136) 제주특별자치도 제주시 연북로 99 1층 하나약국",
    "tel": "064-748-2800",
    "time": "09:00 ~ 23:00",
    "id": "kHeB9oacwHnBiT87fVK8Y8",
    "lng": 126.492005938839,
    "lat": 33.4821139255537
  },
  "rWWm683WFPU4cybxLrZtor": {
    "name": "열린약국",
    "address": "(63097) 제주특별자치도 제주시 월랑로10길 34 열린약국",
    "tel": "064-748-1551",
    "time": "08:00 ~ 21:00",
    "id": "rWWm683WFPU4cybxLrZtor",
    "lng": 126.478761417262,
    "lat": 33.490928248696
  },
  "gLE65UuwSxHN5yaiLLPfxJ": {
    "name": "신한당약국",
    "address": "(63333) 제주특별자치도 제주시 조천읍 신북로 530 신한당약국",
    "tel": "064-783-8087",
    "time": "08:30 ~ 21:00",
    "id": "gLE65UuwSxHN5yaiLLPfxJ",
    "lng": 126.666361762931,
    "lat": 33.5415018463703
  },
  "jzveYojvLZQe17TLhnLdKw": {
    "name": "정민당약국",
    "address": "(63194) 제주특별자치도 제주시 중앙로 127 정민당약국",
    "tel": "064-722-3337",
    "time": "09:00 ~ 19:00",
    "id": "jzveYojvLZQe17TLhnLdKw",
    "lng": 126.524800210254,
    "lat": 33.5073114444632
  },
  "oRKmKQMm9FNnNj38goxivS": {
    "name": "우성약국",
    "address": "(63255) 제주특별자치도 제주시 천수로 53 우성약국",
    "tel": "064-722-6019",
    "time": "08:30 ~ 21:00",
    "id": "oRKmKQMm9FNnNj38goxivS",
    "lng": 126.542229192159,
    "lat": 33.5041423370009
  },
  "5WsG7CaMvSCig3GeiBmE36": {
    "name": "탑동보룡약국",
    "address": "(63165) 제주특별자치도 제주시 탑동로 24 1층",
    "tel": "064-726-4949",
    "time": "08:00 ~ 23:00",
    "id": "5WsG7CaMvSCig3GeiBmE36",
    "lng": 126.522460881414,
    "lat": 33.517560202795
  },
  "4aXDUypJF2aKamQjYNu4Pe": {
    "name": "시원한 약국",
    "address": "(63323) 제주특별자치도 제주시 화삼북로 68 1층 시원한 약국",
    "tel": "064-753-8085",
    "time": "09:00 ~ 21:00",
    "id": "4aXDUypJF2aKamQjYNu4Pe",
    "lng": 126.580288525295,
    "lat": 33.5170666641725
  },
  "ctPU24yjv2KjprgX1KyVPM": {
    "name": "삼화사랑약국",
    "address": "(63323) 제주특별자치도 제주시 건주로 43 1층 삼화사랑약국",
    "tel": "064-755-3545",
    "time": "08:30 ~ 21:00",
    "id": "ctPU24yjv2KjprgX1KyVPM",
    "lng": 126.580987069057,
    "lat": 33.515618997731
  },
  "fDdHZhhv3ZiaMm3kTfZBNU": {
    "name": "구좌약국",
    "address": "(63361) 제주특별자치도 제주시 구좌읍 구좌로 40 1층",
    "tel": "064-782-8875",
    "time": "07:30 ~ 19:30",
    "id": "fDdHZhhv3ZiaMm3kTfZBNU",
    "lng": 126.855667474488,
    "lat": 33.5232790282259
  },
  "8EWk33y6GFqgSFAAb2WJSX": {
    "name": "메디팜감초당약국",
    "address": "(63361) 제주특별자치도 제주시 구좌읍 구좌로 42 메디팜감초당약국",
    "tel": "064-783-2360",
    "time": "08:30 ~ 19:00",
    "id": "8EWk33y6GFqgSFAAb2WJSX",
    "lng": 126.855869740474,
    "lat": 33.5232786326305
  },
  "cHVhUsfQtMtnzos9MB2aid": {
    "name": "자연약국",
    "address": "(63132) 제주특별자치도 제주시 노연로 90 자연약국",
    "tel": "064-712-1596",
    "time": "09:00 ~ 22:30",
    "id": "cHVhUsfQtMtnzos9MB2aid",
    "lng": 126.489715841975,
    "lat": 33.4857262153656
  },
  "mDMRsnCgkRE2hog5ao2FaH": {
    "name": "으뜸약국",
    "address": "(63083) 제주특별자치도 제주시 노형로 376 ",
    "tel": "064-749-0003",
    "time": "09:00 ~ 22:30",
    "id": "mDMRsnCgkRE2hog5ao2FaH",
    "lng": 126.476126253122,
    "lat": 33.483414723833
  },
  "owPcZPf7ossMuLLWWVauCs": {
    "name": "제주토마토약국",
    "address": "(63127) 제주특별자치도 제주시 도령로 73 펠리체상가 101호",
    "tel": "064-712-4003",
    "time": "08:30 ~ 21:00",
    "id": "owPcZPf7ossMuLLWWVauCs",
    "lng": 126.485948322561,
    "lat": 33.4901161837273
  },
  "guC8E4WAtVDUtNX6zh1di9": {
    "name": "낙산약국",
    "address": "(63127) 제주특별자치도 제주시 도령로 87 낙산약국",
    "tel": "064-744-2688",
    "time": "08:00 ~ 22:00",
    "id": "guC8E4WAtVDUtNX6zh1di9",
    "lng": 126.487275468846,
    "lat": 33.4908688308155
  },
  "d2sWgHtnAbBHZL46Tr3Apb": {
    "name": "수약국",
    "address": "(63275) 제주특별자치도 제주시 동광로 124 수약국",
    "tel": "064-759-0587",
    "time": "09:00 ~ 19:00",
    "id": "d2sWgHtnAbBHZL46Tr3Apb",
    "lng": 126.540293885402,
    "lat": 33.5069867270985
  },
  "45bBiG17x4qgcDgMT1PxvZ": {
    "name": "서사라튼튼약국",
    "address": "(63182) 제주특별자치도 제주시 서사로 137 1층 서사라튼튼약국",
    "tel": "064-752-7365",
    "time": "08:30 ~ 19:00",
    "id": "45bBiG17x4qgcDgMT1PxvZ",
    "lng": 126.520055246037,
    "lat": 33.5001420911967
  },
  "cpMuAWdUnBwwqTo1HSsemU": {
    "name": "에이스팜플러스약국",
    "address": "(63124) 제주특별자치도 제주시 신대로14길 56 에이스팜플러스약국",
    "tel": "064-711-5553",
    "time": "08:00 ~ 익일04:00",
    "id": "cpMuAWdUnBwwqTo1HSsemU",
    "lng": 126.490481235438,
    "lat": 33.487995336379
  },
  "iz7AKN3RRFChCriYVWPoZm": {
    "name": "부부온누리약국",
    "address": "(63123) 제주특별자치도 제주시 신대로16길 41 부부온누리약국",
    "tel": "064-742-5252",
    "time": "17:00 ~ 익일03:00",
    "id": "iz7AKN3RRFChCriYVWPoZm",
    "lng": 126.492139331414,
    "lat": 33.4867636252058
  },
  "cVfbfrVHaBtfwYidntiix1": {
    "name": "태평양약국",
    "address": "(63123) 제주특별자치도 제주시 연동7길 30 1층",
    "tel": "064-744-3236",
    "time": "16:00 ~ 21:00",
    "id": "cVfbfrVHaBtfwYidntiix1",
    "lng": 126.490528109697,
    "lat": 33.4872302576653
  },
  "qoxvr7JMaqhbCJtmFKeVGk": {
    "name": "명인약국",
    "address": "(63234) 제주특별자치도 제주시 연북로 511 1층 명인약국",
    "tel": "064-727-1610",
    "time": "09:00 ~ 22:00",
    "id": "qoxvr7JMaqhbCJtmFKeVGk",
    "lng": 126.534540530554,
    "lat": 33.4844445262988
  },
  "o5n92yi1KCkFVwyQ5aumte": {
    "name": "하나약국",
    "address": "(63136) 제주특별자치도 제주시 연북로 99 1층 하나약국",
    "tel": "064-748-2800",
    "time": "09:00 ~ 23:00",
    "id": "o5n92yi1KCkFVwyQ5aumte",
    "lng": 126.492005938839,
    "lat": 33.4821139255537
  },
  "x3oDmGY38vWZyNPiZpD2Gf": {
    "name": "열린약국",
    "address": "(63097) 제주특별자치도 제주시 월랑로10길 34 열린약국",
    "tel": "064-748-1551",
    "time": "08:00 ~ 21:00",
    "id": "x3oDmGY38vWZyNPiZpD2Gf",
    "lng": 126.478761417262,
    "lat": 33.490928248696
  },
  "6zqB2k5TynD9bcT1KiYehh": {
    "name": "신한당약국",
    "address": "(63333) 제주특별자치도 제주시 조천읍 신북로 530 신한당약국",
    "tel": "064-783-8087",
    "time": "08:30 ~ 21:00",
    "id": "6zqB2k5TynD9bcT1KiYehh",
    "lng": 126.666361762931,
    "lat": 33.5415018463703
  },
  "htZ1X12B5hb9uitKHdmLJi": {
    "name": "정민당약국",
    "address": "(63194) 제주특별자치도 제주시 중앙로 127 정민당약국",
    "tel": "064-722-3337",
    "time": "09:00 ~ 19:00",
    "id": "htZ1X12B5hb9uitKHdmLJi",
    "lng": 126.524800210254,
    "lat": 33.5073114444632
  },
  "nkMPG8YAswSQwCFiHoEAwX": {
    "name": "우성약국",
    "address": "(63255) 제주특별자치도 제주시 천수로 53 우성약국",
    "tel": "064-722-6019",
    "time": "08:30 ~ 21:00",
    "id": "nkMPG8YAswSQwCFiHoEAwX",
    "lng": 126.542229192159,
    "lat": 33.5041423370009
  },
  "2zTZkDevy5ga7qGqmuGYDK": {
    "name": "탑동보룡약국",
    "address": "(63165) 제주특별자치도 제주시 탑동로 24 1층",
    "tel": "064-726-4949",
    "time": "08:00 ~ 23:00",
    "id": "2zTZkDevy5ga7qGqmuGYDK",
    "lng": 126.522460881414,
    "lat": 33.517560202795
  },
  "i8gH3yzEgieannyR7A3UR7": {
    "name": "시원한 약국",
    "address": "(63323) 제주특별자치도 제주시 화삼북로 68 1층 시원한 약국",
    "tel": "064-753-8085",
    "time": "09:00 ~ 21:00",
    "id": "i8gH3yzEgieannyR7A3UR7",
    "lng": 126.580288525295,
    "lat": 33.5170666641725
  },
  "tzA89HEix6ueKCa391YKpR": {
    "name": "은우약국",
    "address": "(63087) 제주특별자치도 제주시 1100로 3283 ",
    "tel": "064-748-7542",
    "time": "09:00 ~ 20:00",
    "id": "tzA89HEix6ueKCa391YKpR",
    "lng": 126.481797861927,
    "lat": 33.4794043922342
  },
  "xvR41WFQ2oQW4cwAKSNs5f": {
    "name": "새봄약국",
    "address": "(63083) 제주특별자치도 제주시 1100로 3333 새봄약국",
    "tel": "064-712-0086",
    "time": "08:30 ~ 19:30",
    "id": "xvR41WFQ2oQW4cwAKSNs5f",
    "lng": 126.480144305382,
    "lat": 33.4836219692901
  },
  "rXNeUQCQJ2CDU1fHt2j6G1": {
    "name": "별약국",
    "address": "(63323) 제주특별자치도 제주시 건주로 27 102호",
    "tel": "064-723-0085",
    "time": "08:30 ~ 21:00",
    "id": "rXNeUQCQJ2CDU1fHt2j6G1",
    "lng": 126.5811410102,
    "lat": 33.5170882126091
  },
  "22Zryb7dMSBt2QWyvRwpEv": {
    "name": "설약국",
    "address": "(63323) 제주특별자치도 제주시 건주로 31 1층 설약국",
    "tel": "064-723-7599",
    "time": "09:00 ~ 21:00",
    "id": "22Zryb7dMSBt2QWyvRwpEv",
    "lng": 126.580982878284,
    "lat": 33.5167785217559
  },
  "xzUqWXB3DHRHYL7FDHMPN9": {
    "name": "강약국",
    "address": "(63259) 제주특별자치도 제주시 고마로 147 강약국",
    "tel": "064-726-6366",
    "time": "08:00 ~ 19:00",
    "id": "xzUqWXB3DHRHYL7FDHMPN9",
    "lng": 126.543469074284,
    "lat": 33.5016641058548
  },
  "px62KmE2bmq4etbtqPgsNR": {
    "name": "메디칼약국",
    "address": "(63259) 제주특별자치도 제주시 고마로 149 1층 메디칼약국",
    "tel": "064-726-2200",
    "time": "09:00 ~ 20:00",
    "id": "px62KmE2bmq4etbtqPgsNR",
    "lng": 126.543570318192,
    "lat": 33.5015046264362
  },
  "5fYMGp7UziCHGypkj6w2rK": {
    "name": "정존약국",
    "address": "(63093) 제주특별자치도 제주시 고사마루길 2 1층",
    "tel": "064-742-2378",
    "time": "09:00 ~ 21:00",
    "id": "5fYMGp7UziCHGypkj6w2rK",
    "lng": 126.472234040441,
    "lat": 33.4802908734374
  },
  "3M8YbGC1VeHQpAR7qxyofm": {
    "name": "제주공항약국",
    "address": "(63115) 제주특별자치도 제주시 공항로 2 제주국제공항 여객청사 3층",
    "tel": "064-743-3213",
    "time": "06:00 ~ 21:00",
    "id": "3M8YbGC1VeHQpAR7qxyofm",
    "lng": 126.495951277797,
    "lat": 33.5059364682672
  },
  "8rCJYNapEMfA9NeLYUti1D": {
    "name": "대정약국",
    "address": "(63085) 제주특별자치도 제주시 과원북4길 35 1층 대정약국",
    "tel": "064-743-3734",
    "time": "08:30 ~ 19:00",
    "id": "8rCJYNapEMfA9NeLYUti1D",
    "lng": 126.486371601557,
    "lat": 33.4812622296803
  },
  "8ZeZxLvfsY3J2fZtKaMX9C": {
    "name": "인수당건재약국",
    "address": "(63192) 제주특별자치도 제주시 관덕로 54-2 인수당건재약국",
    "tel": "064-722-3030",
    "time": "09:00 ~ 19:00",
    "id": "8ZeZxLvfsY3J2fZtKaMX9C",
    "lng": 126.525041395467,
    "lat": 33.5130047427775
  },
  "hTawDEE1DChoJdFybpbXn2": {
    "name": "유진약국",
    "address": "(63192) 제주특별자치도 제주시 관덕로 60 1층 유진약국",
    "tel": "064-753-7116",
    "time": "08:30 ~ 21:00",
    "id": "hTawDEE1DChoJdFybpbXn2",
    "lng": 126.525711640813,
    "lat": 33.5129407733201
  },
  "ia5wJJTs66qrJTB2tkbNKa": {
    "name": "조일약국",
    "address": "(63277) 제주특별자치도 제주시 관덕로 63 조일약국",
    "tel": "064-757-2273",
    "time": "08:30 ~ 19:30",
    "id": "ia5wJJTs66qrJTB2tkbNKa",
    "lng": 126.526081549986,
    "lat": 33.5132798345909
  },
  "eAiMXst8CkVNN3fPFXs6QG": {
    "name": "정성약국",
    "address": "(63192) 제주특별자치도 제주시 관덕로 66 정성약국",
    "tel": "064-702-2255",
    "time": "08:30 ~ 19:30",
    "id": "eAiMXst8CkVNN3fPFXs6QG",
    "lng": 126.526286786596,
    "lat": 33.5128681419798
  },
  "n1qW1UrqJ395Mz744rCd9s": {
    "name": "제일약국",
    "address": "(63361) 제주특별자치도 제주시 구좌읍 구좌로 47 제일약국",
    "tel": "064-783-2010",
    "time": "08:30 ~ 19:00",
    "id": "n1qW1UrqJ395Mz744rCd9s",
    "lng": 126.856614176205,
    "lat": 33.5233019464664
  },
  "ev967gLeyMKwCVHnCGjX5J": {
    "name": "세화약국",
    "address": "(63361) 제주특별자치도 제주시 구좌읍 세화10길 1 1층 세화약국",
    "tel": "064-784-8442",
    "time": "08:00 ~ 23:00",
    "id": "ev967gLeyMKwCVHnCGjX5J",
    "lng": 126.858782714682,
    "lat": 33.5208355861818
  },
  "sujVdM8qNXEidm7xgsrB6r": {
    "name": "남광약국",
    "address": "(63230) 제주특별자치도 제주시 남광로2길 43 남광약국",
    "tel": "064-757-6015",
    "time": "09:00 ~ 19:00",
    "id": "sujVdM8qNXEidm7xgsrB6r",
    "lng": 126.540041851833,
    "lat": 33.4892589358421
  },
  "qyFXgwojAMyifY5HAHjJNm": {
    "name": "창신약국",
    "address": "(63169) 제주특별자치도 제주시 남성로 143 ",
    "tel": "064-758-8313",
    "time": "09:00 ~ 21:00",
    "id": "qyFXgwojAMyifY5HAHjJNm",
    "lng": 126.520528850653,
    "lat": 33.5092974205792
  },
  "5APjTafn7LgXv2inLVEWNG": {
    "name": "영제약국",
    "address": "(63083) 제주특별자치도 제주시 노형8길 3 우학빌딩 1층",
    "tel": "064-726-3090",
    "time": "09:00 ~ 18:30",
    "id": "5APjTafn7LgXv2inLVEWNG",
    "lng": 126.477797252714,
    "lat": 33.4844444517438
  },
  "dZ7kKEBsDezPPWaRtwBqAE": {
    "name": "예은온누리약국",
    "address": "(63083) 제주특별자치도 제주시 노형8길 8 1층",
    "tel": "064-747-1225",
    "time": "08:30 ~ 22:00",
    "id": "dZ7kKEBsDezPPWaRtwBqAE",
    "lng": 126.477847039423,
    "lat": 33.4840011684389
  },
  "k3566w7RpRFRMAEAdsce69": {
    "name": "미소약국",
    "address": "(63097) 제주특별자치도 제주시 노형동 1054-6 105호 미소약국",
    "tel": "064-712-2928",
    "time": "08:30 ~ 18:00",
    "id": "k3566w7RpRFRMAEAdsce69",
    "lng": 126.476574642264,
    "lat": 33.488791366549
  },
  "t3ohn8chTsNK8xh8mWcGeB": {
    "name": "싱싱약국",
    "address": "(63083) 제주특별자치도 제주시 노형로 386 싱싱약국",
    "tel": "064-711-7242",
    "time": "08:30 ~ 18:30",
    "id": "t3ohn8chTsNK8xh8mWcGeB",
    "lng": 126.4769251227,
    "lat": 33.4841515431711
  },
  "tu7shQYFNNXaDmcYcNfX6D": {
    "name": "노형타워약국",
    "address": "(63099) 제주특별자치도 제주시 노형로 407 B102호",
    "tel": "064-747-0828",
    "time": "09:00 ~ 18:00",
    "id": "tu7shQYFNNXaDmcYcNfX6D",
    "lng": 126.478301044424,
    "lat": 33.485821410903
  },
  "pV4CvtaKnqZE2Ag8E7hkEX": {
    "name": "휴베이스 건강드림약국",
    "address": "(63098) 제주특별자치도 제주시 도령로 1 건강드림약국",
    "tel": "064-744-0369",
    "time": "08:00 ~ 18:30",
    "id": "pV4CvtaKnqZE2Ag8E7hkEX",
    "lng": 126.479321267482,
    "lat": 33.486812673941
  },
  "u4WNeaSiXstvsPYNBj6RAW": {
    "name": "유성약국",
    "address": "(63098) 제주특별자치도 제주시 도령로 5 유성약국",
    "tel": "064-744-5477",
    "time": "08:00 ~ 19:00",
    "id": "u4WNeaSiXstvsPYNBj6RAW",
    "lng": 126.479932791957,
    "lat": 33.486787562871
  },
  "9CeFCERbBveKmDEzQVs3Mr": {
    "name": "신한온누리약국",
    "address": "(63129) 제주특별자치도 제주시 도령로 74 신한온누리약국",
    "tel": "064-744-1783",
    "time": "08:30 ~ 20:00",
    "id": "9CeFCERbBveKmDEzQVs3Mr",
    "lng": 126.486332954052,
    "lat": 33.4897415444847
  },
  "ej1U8kMESLMQKxSU2JyDKD": {
    "name": "명원약국",
    "address": "(63275) 제주특별자치도 제주시 동광로 100 명원약국",
    "tel": "064-753-0660",
    "time": "08:30 ~ 19:00",
    "id": "ej1U8kMESLMQKxSU2JyDKD",
    "lng": 126.538443642564,
    "lat": 33.5055019582814
  },
  "o1yaXQ8js2xAcpDKuEeoX3": {
    "name": "인제약국",
    "address": "(63275) 제주특별자치도 제주시 동광로 108-1 인제약국",
    "tel": "064-724-7276",
    "time": "09:00 ~ 19:00",
    "id": "o1yaXQ8js2xAcpDKuEeoX3",
    "lng": 126.538992574974,
    "lat": 33.5059574127205
  },
  "mEQo1tzLJitBMsf5KU7kMg": {
    "name": "인화온누리약국",
    "address": "(63275) 제주특별자치도 제주시 동광로 110 인화온누리약국",
    "tel": "064-724-7272",
    "time": "08:30 ~ 19:00",
    "id": "mEQo1tzLJitBMsf5KU7kMg",
    "lng": 126.539246511365,
    "lat": 33.5061298401656
  },
  "xmeHSENH16qKaj4hkUE5XY": {
    "name": "화신온누리약국",
    "address": "(63253) 제주특별자치도 제주시 동광로 129 화신온누리약국",
    "tel": "064-722-2944",
    "time": "08:30 ~ 19:00",
    "id": "xmeHSENH16qKaj4hkUE5XY",
    "lng": 126.540376062933,
    "lat": 33.5078710428623
  },
  "42KKfwRYivepp19JrJ3Vy1": {
    "name": "고승아약국",
    "address": "(63253) 제주특별자치도 제주시 동광로 131 고승아약국",
    "tel": "064-726-6988",
    "time": "08:30 ~ 20:00",
    "id": "42KKfwRYivepp19JrJ3Vy1",
    "lng": 126.540471800294,
    "lat": 33.5079413615319
  },
  "emrqvftt6KqHuLrYCQWa5K": {
    "name": "세브란스약국",
    "address": "(63214) 제주특별자치도 제주시 동광로 90 세브란스약국",
    "tel": "064-722-5711",
    "time": "09:00 ~ 21:00",
    "id": "emrqvftt6KqHuLrYCQWa5K",
    "lng": 126.537739354044,
    "lat": 33.5048156552258
  },
  "nD2Q2Crn5sFeTmQ7aedTDW": {
    "name": "보림약국",
    "address": "(63278) 제주특별자치도 제주시 동문로 35 보림약국",
    "tel": "064-722-3788",
    "time": "08:00 ~ 19:00",
    "id": "nD2Q2Crn5sFeTmQ7aedTDW",
    "lng": 126.530409934429,
    "lat": 33.5131036478419
  },
  "nuA1denvvznyfDLGkfneZi": {
    "name": "위생약국",
    "address": "(63264) 제주특별자치도 제주시 동문로 40 위생약국",
    "tel": "064-753-2630",
    "time": "07:00 ~ 19:30",
    "id": "nuA1denvvznyfDLGkfneZi",
    "lng": 126.530841362093,
    "lat": 33.5128965642625
  },
  "sKgKDQPWnDYENGj2a9dk6o": {
    "name": "조은약국",
    "address": "(63266) 제주특별자치도 제주시 동문로20길 1 1층 조은약국",
    "tel": "064-721-7271",
    "time": "08:30 ~ 19:00",
    "id": "sKgKDQPWnDYENGj2a9dk6o",
    "lng": 126.53663219695,
    "lat": 33.5136308871107
  },
  "rDrhyBC63JYsB8vr2jaMDw": {
    "name": "옵티마힐링약국",
    "address": "(63300) 제주특별자치도 제주시 동화로 28 1층 옵티마힐링약국",
    "tel": "064-757-6860",
    "time": "09:00 ~ 20:00",
    "id": "rDrhyBC63JYsB8vr2jaMDw",
    "lng": 126.572794072486,
    "lat": 33.5178427402212
  },
  "t9vA2TPuzEH7w7W9k4Yzbo": {
    "name": "그린약국",
    "address": "(63300) 제주특별자치도 제주시 동화로 30 그린약국",
    "tel": "064-727-1175",
    "time": "08:30 ~ 19:30",
    "id": "t9vA2TPuzEH7w7W9k4Yzbo",
    "lng": 126.5727900733,
    "lat": 33.5176052471037
  },
  "3qg868MUwqnptbzXJpiW9J": {
    "name": "동의당온누리약국",
    "address": "(63279) 제주특별자치도 제주시 만덕로 21 동의당온누리약국",
    "tel": "064-758-2685",
    "time": "09:00 ~ 20:00",
    "id": "3qg868MUwqnptbzXJpiW9J",
    "lng": 126.532171968381,
    "lat": 33.5147231699557
  },
  "w68QczUFYWpXmi5cK2u7yt": {
    "name": "번영약국",
    "address": "(63313) 제주특별자치도 제주시 번영로 500 1층 번영약국",
    "tel": "064-900-4395",
    "time": "08:30 ~ 19:00",
    "id": "w68QczUFYWpXmi5cK2u7yt",
    "lng": 126.594819609272,
    "lat": 33.490149872474
  },
  "sVZedvwxqDfQxGtnWuk5Ts": {
    "name": "오름아래약국",
    "address": "(63129) 제주특별자치도 제주시 삼무로 18 105호 오름아래약국",
    "tel": "064-805-2093",
    "time": "09:00 ~ 익일00:00",
    "id": "sVZedvwxqDfQxGtnWuk5Ts",
    "lng": 126.488660583969,
    "lat": 33.4895983510098
  },
  "5xnf5oQCZhYXPAkZcycLBL": {
    "name": "한라프라자약국",
    "address": "(63124) 제주특별자치도 제주시 삼무로 46 한라프라자약국",
    "tel": "064-743-2098",
    "time": "08:30 ~ 18:30",
    "id": "5xnf5oQCZhYXPAkZcycLBL",
    "lng": 126.491545207446,
    "lat": 33.4896484476898
  },
  "p1vFwg6UfL9t3Jybav5AeX": {
    "name": "동현약국",
    "address": "(63327) 제주특별자치도 제주시 삼봉로 327 A동 102호",
    "tel": "064-723-0490",
    "time": "08:30 ~ 18:30",
    "id": "p1vFwg6UfL9t3Jybav5AeX",
    "lng": 126.594219147406,
    "lat": 33.4940793199306
  },
  "sCpunp9p9MYYUcvr9YsqPC": {
    "name": "온누리대우약국",
    "address": "(63184) 제주특별자치도 제주시 서광로 171 온누리대우약국",
    "tel": "064-753-3390",
    "time": "08:30 ~ 21:30",
    "id": "sCpunp9p9MYYUcvr9YsqPC",
    "lng": 126.514721990879,
    "lat": 33.5002496144059
  },
  "vbELBvgfgoSLAf4N1yXSKC": {
    "name": "수성약국",
    "address": "(63184) 제주특별자치도 제주시 서광로 173 수성약국",
    "tel": "064-751-2526",
    "time": "07:30 ~ 19:30",
    "id": "vbELBvgfgoSLAf4N1yXSKC",
    "lng": 126.514947797042,
    "lat": 33.5002443677642
  },
  "vwWDaRMgkkbGXsEwDSiNhw": {
    "name": "감초당약국",
    "address": "(63184) 제주특별자치도 제주시 서광로 181 ",
    "tel": "064-722-4370",
    "time": "09:00 ~ 18:30",
    "id": "vwWDaRMgkkbGXsEwDSiNhw",
    "lng": 126.51595244176,
    "lat": 33.5002343219569
  },
  "i1i6Rh4CZ2yTGzuT1yoxLP": {
    "name": "하나로약국",
    "address": "(63183) 제주특별자치도 제주시 서광로 189 하나로약국",
    "tel": "064-726-0282",
    "time": "08:30 ~ 19:00",
    "id": "i1i6Rh4CZ2yTGzuT1yoxLP",
    "lng": 126.516653933658,
    "lat": 33.5002243480074
  },
  "xd9MXW3zJVLynXuUX7CexZ": {
    "name": "우리약국",
    "address": "(63183) 제주특별자치도 제주시 서광로 195 우리약국",
    "tel": "064-758-1894",
    "time": "08:00 ~ 20:30",
    "id": "xd9MXW3zJVLynXuUX7CexZ",
    "lng": 126.517434116968,
    "lat": 33.5001905139285
  },
  "8VhaCVCkCbpjXAb7EG1AKf": {
    "name": "금호약국",
    "address": "(63185) 제주특별자치도 제주시 서광로 202 ",
    "tel": "064-752-3200",
    "time": "08:00 ~ 20:30",
    "id": "8VhaCVCkCbpjXAb7EG1AKf",
    "lng": 126.517875241457,
    "lat": 33.4997034782436
  },
  "2vWvFdqaCP73LPGRMkYU3p": {
    "name": "해약국",
    "address": "(63182) 제주특별자치도 제주시 서광로 263 해약국",
    "tel": "064-725-2283",
    "time": "08:30 ~ 18:00",
    "id": "2vWvFdqaCP73LPGRMkYU3p",
    "lng": 126.524595836648,
    "lat": 33.5002241500889
  },
  "rCna98U7spnyBWmym5y29v": {
    "name": "성종약국",
    "address": "(63182) 제주특별자치도 제주시 서광로 267 성종약국",
    "tel": "064-721-0224",
    "time": "08:30 ~ 19:30",
    "id": "rCna98U7spnyBWmym5y29v",
    "lng": 126.524944772172,
    "lat": 33.5002353157767
  },
  "fytUPjq48FYxPifEygbuHK": {
    "name": "만년약국",
    "address": "(63200) 제주특별자치도 제주시 서광로 268 만년약국",
    "tel": "064-726-8806",
    "time": "08:00 ~ 19:00",
    "id": "fytUPjq48FYxPifEygbuHK",
    "lng": 126.525191367395,
    "lat": 33.4997533682016
  },
  "tAWkT3jJFwgb67X6WF1zVQ": {
    "name": "고운약국",
    "address": "(63199) 제주특별자치도 제주시 서광로 273 고운약국",
    "tel": "064-723-1339",
    "time": "09:00 ~ 19:00",
    "id": "tAWkT3jJFwgb67X6WF1zVQ",
    "lng": 126.525662002453,
    "lat": 33.5004176607745
  },
  "foYqFzT1KoSRAwP9pPpLfB": {
    "name": "힐링약국",
    "address": "(63207) 제주특별자치도 제주시 서광로 278 줌타워 101호",
    "tel": "064-702-2332",
    "time": "08:30 ~ 18:30",
    "id": "foYqFzT1KoSRAwP9pPpLfB",
    "lng": 126.526212033291,
    "lat": 33.4999816815601
  },
  "bqxEuRV6H5gaB5DaDf1KR9": {
    "name": "100세약국",
    "address": "(63207) 제주특별자치도 제주시 서광로 300-1 ",
    "tel": "064-702-0103",
    "time": "09:00 ~ 21:30",
    "id": "bqxEuRV6H5gaB5DaDf1KR9",
    "lng": 126.528633948144,
    "lat": 33.500391586513
  },
  "io3rXLn32JT7sQtb6hUksG": {
    "name": "영신온누리약국",
    "address": "(63154) 제주특별자치도 제주시 서문로 68 영신온누리약국",
    "tel": "064-722-0371",
    "time": "08:30 ~ 20:00",
    "id": "io3rXLn32JT7sQtb6hUksG",
    "lng": 126.518385714275,
    "lat": 33.5117397203378
  },
  "kg63VoJQRP41r8Pm7qaUPE": {
    "name": "건강한약국",
    "address": "(63186) 제주특별자치도 제주시 서사로 155 1층",
    "tel": "064-722-2004",
    "time": "08:00 ~ 20:00",
    "id": "kg63VoJQRP41r8Pm7qaUPE",
    "lng": 126.520043633981,
    "lat": 33.4984631916553
  },
  "iusbyGSwQ4yUL7fjsjaWJX": {
    "name": "새우리약국",
    "address": "(63172) 제주특별자치도 제주시 서사로 36 새우리약국",
    "tel": "064-757-7675",
    "time": "09:00 ~ 23:00",
    "id": "iusbyGSwQ4yUL7fjsjaWJX",
    "lng": 126.519651446053,
    "lat": 33.509244975192
  },
  "7nHQJkCi6Z7NopWCvTKQ6L": {
    "name": "365약국",
    "address": "(63113) 제주특별자치도 제주시 서해안로 161 ",
    "tel": "0647113652",
    "time": "08:00 ~ 20:00",
    "id": "7nHQJkCi6Z7NopWCvTKQ6L",
    "lng": 126.466051763303,
    "lat": 33.5040159739566
  },
  "mCN4M7og45MT18eTXDDEkP": {
    "name": "한라산약국",
    "address": "(63127) 제주특별자치도 제주시 성신로 13-4 한라산약국",
    "tel": "010-9066-5864",
    "time": "09:00 ~ 18:00",
    "id": "mCN4M7og45MT18eTXDDEkP",
    "lng": 126.485210416351,
    "lat": 33.4909836070888
  },
  "foYEkbAQ1hNAaDDnQUAufd": {
    "name": "신제주대웅약국",
    "address": "(63127) 제주특별자치도 제주시 성신로 13-8 신제주대웅약국",
    "tel": "064-747-8811",
    "time": "08:30 ~ 18:30",
    "id": "foYEkbAQ1hNAaDDnQUAufd",
    "lng": 126.484844218554,
    "lat": 33.490914736412
  },
  "eCufDdmY8UUp1HqcPnqqeC": {
    "name": "제주약국",
    "address": "(63127) 제주특별자치도 제주시 성신로 13-8 103호",
    "tel": "064-713-8575",
    "time": "09:00 ~ 18:30",
    "id": "eCufDdmY8UUp1HqcPnqqeC",
    "lng": 126.484844218554,
    "lat": 33.490914736412
  },
  "g5FtiZJZWWp9QE8ufpLnmX": {
    "name": "정약국",
    "address": "(63099) 제주특별자치도 제주시 수덕1길 3 ",
    "tel": "064-713-0033",
    "time": "08:00 ~ 18:30",
    "id": "g5FtiZJZWWp9QE8ufpLnmX",
    "lng": 126.478276246833,
    "lat": 33.4862425301571
  },
  "iM2eYjCzASe96WowUsdGGh": {
    "name": "밝은사랑약국",
    "address": "(63102) 제주특별자치도 제주시 수덕로 41 1층",
    "tel": "0647127965",
    "time": "09:00 ~ 18:00",
    "id": "iM2eYjCzASe96WowUsdGGh",
    "lng": 126.472784599759,
    "lat": 33.4861483341127
  },
  "wKDRyZCvBvUTAUvdK7S6X9": {
    "name": "하늘약국",
    "address": "(63100) 제주특별자치도 제주시 수덕로 6 ",
    "tel": "064-748-4001",
    "time": "09:00 ~ 18:00",
    "id": "wKDRyZCvBvUTAUvdK7S6X9",
    "lng": 126.475307220929,
    "lat": 33.4886649230919
  },
  "cRwie3JZtW54H2cQtvZZMS": {
    "name": "새순약국",
    "address": "(63103) 제주특별자치도 제주시 수덕로 69 새순약국",
    "tel": "064-713-5177",
    "time": "09:00 ~ 19:00",
    "id": "cRwie3JZtW54H2cQtvZZMS",
    "lng": 126.470607092953,
    "lat": 33.4844241345135
  },
  "1rHS26Hanqcwo4AVa378go": {
    "name": "오케이약국",
    "address": "(63231) 제주특별자치도 제주시 승천로 74 ",
    "tel": "064-723-6690",
    "time": "08:30 ~ 19:00",
    "id": "1rHS26Hanqcwo4AVa378go",
    "lng": 126.542579496739,
    "lat": 33.4921926501796
  },
  "1p2ZY1ozo4BsQKGGPKygL7": {
    "name": "에코약국",
    "address": "(63227) 제주특별자치도 제주시 승천로 75 ",
    "tel": "064-722-0059",
    "time": "09:00 ~ 20:00",
    "id": "1p2ZY1ozo4BsQKGGPKygL7",
    "lng": 126.543176897454,
    "lat": 33.4922384009257
  },
  "5GGdSrepqm8X1UgBKimZqZ": {
    "name": "새한온누리약국",
    "address": "(63123) 제주특별자치도 제주시 신대로 128 새한온누리약국",
    "tel": "064-742-1348",
    "time": "09:00 ~ 22:00",
    "id": "5GGdSrepqm8X1UgBKimZqZ",
    "lng": 126.496059583157,
    "lat": 33.4858517995196
  },
  "w9ouBhg9AxRx7NRNhL58qR": {
    "name": "한결약국",
    "address": "(63205) 제주특별자치도 제주시 신성로 78 1층",
    "tel": "064-727-1210",
    "time": "08:30 ~ 21:00",
    "id": "w9ouBhg9AxRx7NRNhL58qR",
    "lng": 126.527805588365,
    "lat": 33.4954440983053
  },
  "pJsuXmVZnVxb4WwWYKapb6": {
    "name": "아라약국",
    "address": "(63043) 제주특별자치도 제주시 애월읍 애월로 120 아라약국",
    "tel": "064-799-4460",
    "time": "08:30 ~ 21:00",
    "id": "pJsuXmVZnVxb4WwWYKapb6",
    "lng": 126.319970894671,
    "lat": 33.4643785619656
  },
  "7gjAkbnKnHBgwHcpE7bMHc": {
    "name": "하귀하나로약국",
    "address": "(63054) 제주특별자치도 제주시 애월읍 일주서로 7136 하귀하나로약국",
    "tel": "064-742-8434",
    "time": "08:30 ~ 20:00",
    "id": "7gjAkbnKnHBgwHcpE7bMHc",
    "lng": 126.412159214346,
    "lat": 33.4850611892862
  },
  "b1LpDmCgDZZjUt5qZobffb": {
    "name": "동백약국",
    "address": "(63054) 제주특별자치도 제주시 애월읍 하귀9길 1 103호",
    "tel": "064-904-1102",
    "time": "08:30 ~ 19:00",
    "id": "b1LpDmCgDZZjUt5qZobffb",
    "lng": 126.414969308735,
    "lat": 33.4867393589107
  },
  "2vAUMYPaR9a2JbZpDVBk45": {
    "name": "곰온누리약국",
    "address": "(63054) 제주특별자치도 제주시 애월읍 하귀9길 2 모닝시티 106호",
    "tel": "064-747-6174",
    "time": "09:00 ~ 18:00",
    "id": "2vAUMYPaR9a2JbZpDVBk45",
    "lng": 126.414565502113,
    "lat": 33.4864182898895
  },
  "8TDRP6rHzT8ypYb3SNk5it": {
    "name": "하귀약국",
    "address": "(63051) 제주특별자치도 제주시 애월읍 하귀로 35 하귀약국",
    "tel": "064-713-2927",
    "time": "08:30 ~ 19:00",
    "id": "8TDRP6rHzT8ypYb3SNk5it",
    "lng": 126.40098470745,
    "lat": 33.4803467441823
  },
  "aryNTw7tW3zSF3yW9ZoaH1": {
    "name": "송약국",
    "address": "(63051) 제주특별자치도 제주시 애월읍 하귀로 77 송약국",
    "tel": "064-712-8538",
    "time": "08:00 ~ 21:30",
    "id": "aryNTw7tW3zSF3yW9ZoaH1",
    "lng": 126.405012921092,
    "lat": 33.4817561259736
  },
  "2r5u8NzAQAeK1w2o6CVSkJ": {
    "name": "제주예스약국",
    "address": "(63094) 제주특별자치도 제주시 억삼길 35-57 제주예스약국",
    "tel": "064-744-5551",
    "time": "09:00 ~ 22:00",
    "id": "2r5u8NzAQAeK1w2o6CVSkJ",
    "lng": 126.471259738003,
    "lat": 33.4917415285373
  },
  "j1qNNFJ4LVpfSeTeuNjyCn": {
    "name": "신세계약국",
    "address": "(63133) 제주특별자치도 제주시 연동8길 7 신세계약국",
    "tel": "064-746-3983",
    "time": "09:00 ~ 22:00",
    "id": "j1qNNFJ4LVpfSeTeuNjyCn",
    "lng": 126.490807609442,
    "lat": 33.4851414250848
  },
  "kdUirSB2cnWRwtHGaTyEdo": {
    "name": "뉴제주약국",
    "address": "(63133) 제주특별자치도 제주시 연동8길 8 뉴제주약국",
    "tel": "064-752-5244",
    "time": "08:30 ~ 19:30",
    "id": "kdUirSB2cnWRwtHGaTyEdo",
    "lng": 126.490514238975,
    "lat": 33.4851337279057
  },
  "atERGcbLd3hpTxeHAjdK7z": {
    "name": "스마트약국",
    "address": "(63084) 제주특별자치도 제주시 연북로 1 1층 (노형동,롯데마트)",
    "tel": "064-712-6706",
    "time": "10:00 ~ 21:30",
    "id": "atERGcbLd3hpTxeHAjdK7z",
    "lng": 126.481834000763,
    "lat": 33.4824421892687
  },
  "5pC9W2DXsuZoYFZwi7MgMz": {
    "name": "신진팜약국",
    "address": "(63085) 제주특별자치도 제주시 연북로 34 1층 신진팜약국",
    "tel": "064-746-5452",
    "time": "08:30 ~ 09:00",
    "id": "5pC9W2DXsuZoYFZwi7MgMz",
    "lng": 126.484952001108,
    "lat": 33.4816683662675
  },
  "3JDAWQZ7uErsgSuE1Tmb2n": {
    "name": "굿모닝약국",
    "address": "(63085) 제주특별자치도 제주시 연북로 40 굿모닝약국",
    "tel": "064-711-8995",
    "time": "09:00 ~ 19:00",
    "id": "3JDAWQZ7uErsgSuE1Tmb2n",
    "lng": 126.485625199268,
    "lat": 33.4816329345296
  },
  "krWiuGX77K3dzU13EhRw9o": {
    "name": "해모로약국",
    "address": "(63204) 제주특별자치도 제주시 연삼로 305 해모로약국",
    "tel": "064-901-7378",
    "time": "10:00 ~ 20:00",
    "id": "krWiuGX77K3dzU13EhRw9o",
    "lng": 126.525167130007,
    "lat": 33.4923853689194
  },
  "e4hZ8vt5yEkaYvES7UXdH2": {
    "name": "최약국",
    "address": "(63260) 제주특별자치도 제주시 연삼로 548 1층 최약국",
    "tel": "064-755-3566",
    "time": "08:30 ~ 19:00",
    "id": "e4hZ8vt5yEkaYvES7UXdH2",
    "lng": 126.547453553136,
    "lat": 33.5023973829354
  },
  "eqKLYcogXwpz8ih49afa6J": {
    "name": "영주약국",
    "address": "(63227) 제주특별자치도 제주시 연신로 46 ",
    "tel": "064-722-5593",
    "time": "09:00 ~ 19:00",
    "id": "eqKLYcogXwpz8ih49afa6J",
    "lng": 126.546270581436,
    "lat": 33.4969993645896
  },
  "rTJYVgAvZUX3GxUz5rkTGU": {
    "name": "한우리약국",
    "address": "(63228) 제주특별자치도 제주시 연신로 51 한우리약국",
    "tel": "064-723-8484",
    "time": "08:30 ~ 19:00",
    "id": "rTJYVgAvZUX3GxUz5rkTGU",
    "lng": 126.54690529802,
    "lat": 33.4968501292395
  },
  "2xyT85fvx1PDPPBxjcgWyt": {
    "name": "맘꽃약국",
    "address": "(63145) 제주특별자치도 제주시 연오로 59 이룸프라자 204호 맘꽃약국",
    "tel": "064-747-2966",
    "time": "08:30 ~ 20:30",
    "id": "2xyT85fvx1PDPPBxjcgWyt",
    "lng": 126.502057860304,
    "lat": 33.4879308657759
  },
  "5dfs8YyxURKzZezNNPCTeX": {
    "name": "동보약국",
    "address": "(63192) 제주특별자치도 제주시 오현길 78 동보약국",
    "tel": "064-757-5833",
    "time": "07:00 ~ 20:00",
    "id": "5dfs8YyxURKzZezNNPCTeX",
    "lng": 126.525549123259,
    "lat": 33.5117368883857
  },
  "uf6Nb47VRAgTFBkyymGekZ": {
    "name": "용담온누리약국",
    "address": "(63157) 제주특별자치도 제주시 용담로 46 용담온누리약국",
    "tel": "064-712-0259",
    "time": "08:30 ~ 19:00",
    "id": "uf6Nb47VRAgTFBkyymGekZ",
    "lng": 126.507652346153,
    "lat": 33.5127685258347
  },
  "nTMtaKvFrMyGycAwxHmcF2": {
    "name": "우주약국",
    "address": "(63156) 제주특별자치도 제주시 용담로 92 1층 우주약국",
    "tel": "070-4111-6964",
    "time": "08:30 ~ 19:30",
    "id": "nTMtaKvFrMyGycAwxHmcF2",
    "lng": 126.512347253755,
    "lat": 33.5119148080676
  },
  "jtKWcwH5JLuXZenzyV4PJN": {
    "name": "무등약국",
    "address": "(63184) 제주특별자치도 제주시 용담일동 2824-15 1층 무등약국",
    "tel": "064-722-5529",
    "time": "08:30 ~ 18:30",
    "id": "jtKWcwH5JLuXZenzyV4PJN",
    "lng": 126.513120207898,
    "lat": 33.5012173198257
  },
  "eLyZCnqs21r2w5ETcCPHDd": {
    "name": "유명약국",
    "address": "(63156) 제주특별자치도 제주시 용문로 163 유명약국",
    "tel": "064-711-4587",
    "time": "09:00 ~ 18:30",
    "id": "eLyZCnqs21r2w5ETcCPHDd",
    "lng": 126.51081189938,
    "lat": 33.5092782759611
  },
  "fUHL5g28J6NvW2cayEbzz2": {
    "name": "가정온누리약국",
    "address": "(63070) 제주특별자치도 제주시 우정로 57 가정온누리약국",
    "tel": "064-711-5275",
    "time": "08:30 ~ 21:00",
    "id": "fUHL5g28J6NvW2cayEbzz2",
    "lng": 126.43111337908,
    "lat": 33.4876991586953
  },
  "t2ZtbHPMJQrgsngHDq681z": {
    "name": "알로하약국",
    "address": "(63070) 제주특별자치도 제주시 우정로15길 1 106호 알로하약국",
    "tel": "064-723-9090",
    "time": "09:00 ~ 20:30",
    "id": "t2ZtbHPMJQrgsngHDq681z",
    "lng": 126.431233598343,
    "lat": 33.4861306755197
  },
  "wtBx4bCHn9TQWSEN3HpuoW": {
    "name": "착한약국",
    "address": "(63070) 제주특별자치도 제주시 우정로15길 5 102호",
    "tel": "064-744-6314",
    "time": "08:00 ~ 18:30",
    "id": "wtBx4bCHn9TQWSEN3HpuoW",
    "lng": 126.431727067918,
    "lat": 33.4860933595521
  },
  "9naf7sw1VYm2BCsPDkubmq": {
    "name": "우리들약국",
    "address": "(63070) 제주특별자치도 제주시 우정로5길 5 우리들약국",
    "tel": "064-712-6543",
    "time": "08:00 ~ 19:30",
    "id": "9naf7sw1VYm2BCsPDkubmq",
    "lng": 126.431685213822,
    "lat": 33.4904255714914
  },
  "1HoMNL9YcKFG8RiisEpY9m": {
    "name": "부원약국",
    "address": "(63069) 제주특별자치도 제주시 우정로8길 2 1층 부원약국",
    "tel": "064-900-4338",
    "time": "08:30 ~ 19:00",
    "id": "1HoMNL9YcKFG8RiisEpY9m",
    "lng": 126.430679405636,
    "lat": 33.4893639324779
  },
  "gFn7JfKTEqrA8H4YaQFLED": {
    "name": "큰곰약국",
    "address": "(63069) 제주특별자치도 제주시 우평로 338 1층 큰곰약국",
    "tel": "064-746-1133",
    "time": "09:00 ~ 13:00",
    "id": "gFn7JfKTEqrA8H4YaQFLED",
    "lng": 126.430534621471,
    "lat": 33.4841944587667
  },
  "mCeDB4pgWwbPMZywPmFzf7": {
    "name": "생생약국",
    "address": "(63082) 제주특별자치도 제주시 원노형남1길 1 1층",
    "tel": "064-711-1788",
    "time": "09:00 ~ 21:00",
    "id": "mCeDB4pgWwbPMZywPmFzf7",
    "lng": 126.480730767311,
    "lat": 33.484006612815
  },
  "xBpfu1jwLvQ3fU1nw1CtYh": {
    "name": "메디팜월랑약국",
    "address": "(63100) 제주특별자치도 제주시 월랑로 39 동마빌딩1층 메디팜월랑약국",
    "tel": "064-742-9770",
    "time": "08:30 ~ 20:30",
    "id": "xBpfu1jwLvQ3fU1nw1CtYh",
    "lng": 126.475614662141,
    "lat": 33.4889462586235
  },
  "5VuufzLmnwC1Tzn3WYsyug": {
    "name": "세원약국",
    "address": "(63099) 제주특별자치도 제주시 월랑로 5 세원약국",
    "tel": "064-742-9090",
    "time": "08:30 ~ 21:00",
    "id": "5VuufzLmnwC1Tzn3WYsyug",
    "lng": 126.478263449417,
    "lat": 33.4866900263728
  },
  "aatrVjoVDTkHPDcvvF13Rz": {
    "name": "행복나눔약국",
    "address": "(63100) 제주특별자치도 제주시 월랑로 59 세흔빌딩 1층",
    "tel": "064-747-7227",
    "time": "08:30 ~ 20:00",
    "id": "aatrVjoVDTkHPDcvvF13Rz",
    "lng": 126.474199468505,
    "lat": 33.4902322419752
  },
  "kkiRT7dYrMke3bi7TRrKqP": {
    "name": "신산약국",
    "address": "(63268) 제주특별자치도 제주시 일도이동 1027-5 신산약국",
    "tel": "064-722-7290",
    "time": "08:30 ~ 19:00",
    "id": "kkiRT7dYrMke3bi7TRrKqP",
    "lng": 126.531367689696,
    "lat": 33.5115367937515
  },
  "vajcJGu2xeWtMPpG6x1Buu": {
    "name": "온누리한솔약국",
    "address": "(63292) 제주특별자치도 제주시 일주동로 181 온누리한솔약국",
    "tel": "064-725-0270",
    "time": "09:00 ~ 18:30",
    "id": "vajcJGu2xeWtMPpG6x1Buu",
    "lng": 126.564818561283,
    "lat": 33.5190270774341
  },
  "a6RVmioyQYjWn2QpCPeJEo": {
    "name": "화북약국",
    "address": "(63289) 제주특별자치도 제주시 일주동로 199 화북약국",
    "tel": "064-756-1428",
    "time": "08:30 ~ 21:00",
    "id": "a6RVmioyQYjWn2QpCPeJEo",
    "lng": 126.566846605617,
    "lat": 33.5190229158855
  },
  "2UAfAm3voraBbnD3qP2YSs": {
    "name": "월마트약국",
    "address": "(63288) 제주특별자치도 제주시 일주동로 229 1층 월마트약국",
    "tel": "064-723-4947",
    "time": "09:00 ~ 20:00",
    "id": "2UAfAm3voraBbnD3qP2YSs",
    "lng": 126.569947757174,
    "lat": 33.5194425930885
  },
  "jmLM6Lq93iuEqn12w3wdU8": {
    "name": "동화약국",
    "address": "(63288) 제주특별자치도 제주시 일주동로 241 동화약국",
    "tel": "064-723-6462",
    "time": "09:00 ~ 18:00",
    "id": "jmLM6Lq93iuEqn12w3wdU8",
    "lng": 126.570960870211,
    "lat": 33.5198327989352
  },
  "wMpPGb2iRAZhKCTEJw6W5T": {
    "name": "삼양약국",
    "address": "(63321) 제주특별자치도 제주시 일주동로 366 1층",
    "tel": "064-758-1734",
    "time": "08:30 ~ 18:30",
    "id": "wMpPGb2iRAZhKCTEJw6W5T",
    "lng": 126.584080157623,
    "lat": 33.5208841725461
  },
  "k8yo4ubm1PvRU5ch4f7381": {
    "name": "삼화약국",
    "address": "(63321) 제주특별자치도 제주시 일주동로 366 ",
    "tel": "064-758-1734",
    "time": "08:30 ~ 20:00",
    "id": "k8yo4ubm1PvRU5ch4f7381",
    "lng": 126.584080157623,
    "lat": 33.5208841725461
  },
  "tENzr2UeSaBHFxAhckbStU": {
    "name": "삼양온누리약국",
    "address": "(63318) 제주특별자치도 제주시 일주동로 393 1층",
    "tel": "070-8900-4480",
    "time": "09:00 ~ 20:00",
    "id": "tENzr2UeSaBHFxAhckbStU",
    "lng": 126.58696097496,
    "lat": 33.521537909651
  },
  "97NcPSju2RAd1KgwZFRRuH": {
    "name": "한사랑약국",
    "address": "(63331) 제주특별자치도 제주시 조천읍 신북로 217 ",
    "tel": "064-784-3336",
    "time": "09:00 ~ 19:00",
    "id": "97NcPSju2RAd1KgwZFRRuH",
    "lng": 126.636033867269,
    "lat": 33.5357738080624
  },
  "5baa1rYTgvFTXUZUMruYYr": {
    "name": "조천약국",
    "address": "(63331) 제주특별자치도 제주시 조천읍 신북로 226 조천약국",
    "tel": "064-783-8989",
    "time": "08:30 ~ 21:00",
    "id": "5baa1rYTgvFTXUZUMruYYr",
    "lng": 126.637179387123,
    "lat": 33.5360014855524
  },
  "iwuZCa6nXpJ8BGbdZehhew": {
    "name": "영재약국",
    "address": "(63333) 제주특별자치도 제주시 조천읍 신북로 510-1 영재약국",
    "tel": "064-783-1959",
    "time": "08:30 ~ 23:00",
    "id": "iwuZCa6nXpJ8BGbdZehhew",
    "lng": 126.664236789984,
    "lat": 33.5421838373358
  },
  "nMDCiwikiUEtrd5szzmvQ1": {
    "name": "나라약국",
    "address": "(63333) 제주특별자치도 제주시 조천읍 신북로 523 나라약국",
    "tel": "064-782-3700",
    "time": "08:00 ~ 18:30",
    "id": "nMDCiwikiUEtrd5szzmvQ1",
    "lng": 126.665971016422,
    "lat": 33.5420394042026
  },
  "nV3xA5YNfMP29gyZJWaxRw": {
    "name": "옵티마대한약국",
    "address": "(63333) 제주특별자치도 제주시 조천읍 조함해안로 488-6 옵티마대한약국",
    "tel": "064-784-3432",
    "time": "09:00 ~ 18:30",
    "id": "nV3xA5YNfMP29gyZJWaxRw",
    "lng": 126.664635344258,
    "lat": 33.542303837388
  },
  "tvN6j6AmDPseVagkQkBGjn": {
    "name": "함덕하나로약국",
    "address": "(63334) 제주특별자치도 제주시 조천읍 함와로 40 함덕하나로약국",
    "tel": "064-784-8434",
    "time": "08:00 ~ 19:00",
    "id": "tvN6j6AmDPseVagkQkBGjn",
    "lng": 126.674912222026,
    "lat": 33.5365660075389
  },
  "jkC1J5wqjyqdCoEDP3hYmh": {
    "name": "남문약국",
    "address": "(63170) 제주특별자치도 제주시 중앙로 132 1층 남문약국",
    "tel": "064-751-9967",
    "time": "08:30 ~ 20:30",
    "id": "jkC1J5wqjyqdCoEDP3hYmh",
    "lng": 126.524698216331,
    "lat": 33.5068721586305
  },
  "medvqtJndPw9Qzkhxn5FNi": {
    "name": "연세익약국",
    "address": "(63197) 제주특별자치도 제주시 중앙로 175 ",
    "tel": "064-725-9454",
    "time": "08:30 ~ 22:00",
    "id": "medvqtJndPw9Qzkhxn5FNi",
    "lng": 126.527366850279,
    "lat": 33.503565682999
  },
  "rfxKtpyT22KL4yAt31DUti": {
    "name": "웅진약국",
    "address": "(63197) 제주특별자치도 제주시 중앙로 195 웅진약국",
    "tel": "064-723-7677",
    "time": "09:00 ~ 18:00",
    "id": "rfxKtpyT22KL4yAt31DUti",
    "lng": 126.528438943589,
    "lat": 33.502000096441
  },
  "oRLbqeFa4YgQs46gcwEgic": {
    "name": "늘좋은약국",
    "address": "(63206) 제주특별자치도 제주시 중앙로 284 늘좋은약국",
    "tel": "064-751-2277",
    "time": "08:00 ~ 20:00",
    "id": "oRLbqeFa4YgQs46gcwEgic",
    "lng": 126.533002564798,
    "lat": 33.4950673629048
  },
  "5TKW9mCkYQLaubM3rcm2p3": {
    "name": "주원약국",
    "address": "(63222) 제주특별자치도 제주시 중앙로 318 주원약국",
    "tel": "064-752-2321",
    "time": "08:30 ~ 21:00",
    "id": "5TKW9mCkYQLaubM3rcm2p3",
    "lng": 126.535272367644,
    "lat": 33.4926491670383
  },
  "cp4gSzxbd2p11EnE4XJtFn": {
    "name": "베스트약국",
    "address": "(63232) 제주특별자치도 제주시 중앙로 354 은빌딩1층",
    "tel": "064-752-7525",
    "time": "08:30 ~ 19:00",
    "id": "cp4gSzxbd2p11EnE4XJtFn",
    "lng": 126.537715735683,
    "lat": 33.4900853370456
  }
}
